{
  "users": [
    {
      "email": "admin@gmail.com",
      "password": "$2a$10$sGpShRG3ZpxoYbzVSo.Nf.UMOR63Yu484rFnFmqZIELSwGFl7iaXa",
      "id": 1
    },
    {
      "email": "pouya@gmail.com",
      "password": "$2a$10$s4rOpJI2e.8K6g0HYOYMQuvX.EJufNTbgM6Ku2c7jKJNVkE4TOtOO",
      "id": 2
    }
  ],
  "ads": [
    {
      "title": "زارع, شهرک شهید بهشتی",
      "address": "زارع, شهرک شهید بهشتی, شهر چهاردانگه, بخش چهاردانگه, شهرستان اسلامشهر, استان تهران, ایران",
      "description": "زارع, شهرک شهید بهشتی پلاک 13",
      "phone": "09396861766",
      "lat": 35.583,
      "lng": 51.327,
      "date": "2024-07-23T17:11:47.769Z",
      "id": 1
    },
    {
      "title": "زارع, شهرک شهید بهشتی",
      "address": "شهرک شهید بهشتی, شهر چهاردانگه, بخش چهاردانگه, شهرستان اسلامشهر, استان تهران, 13778-78888, ایران",
      "description": "زارع, شهرک شهید بهشتی 15",
      "phone": "09396861766",
      "lat": 35.604,
      "lng": 51.303,
      "date": "2024-07-23T17:12:48.764Z",
      "id": 2
    },
    {
      "title": "زارع, شهرک شهید بهشتی",
      "address": "زارع, شهرک شهید بهشتی, شهر چهاردانگه, بخش چهاردانگه, شهرستان اسلامشهر, استان تهران, ایران",
      "description": "زارع, شهرک شهید بهشتی پلاک 13",
      "phone": "09396861766",
      "lat": 35.583,
      "lng": 51.327,
      "date": "2024-07-23T17:11:47.769Z",
      "id": 4
    },
    {
      "title": "زارع, شهرک شهید بهشتی",
      "address": "شهرک شهید بهشتی, شهر چهاردانگه, بخش چهاردانگه, شهرستان اسلامشهر, استان تهران, 13778-78888, ایران",
      "description": "زارع, شهرک شهید بهشتی 15",
      "phone": "09396861766",
      "lat": 35.604,
      "lng": 51.303,
      "date": "2024-07-23T17:12:48.764Z",
      "id": 5
    },
    {
      "title": "کارگر شمالی, والفجر",
      "address": "کارگر شمالی, والفجر, منطقه ۶ شهر تهران, شهر تهران, بخش مرکزی شهرستان تهران, شهرستان تهران, استان تهران, 14399-51113, ایران",
      "description": "کارگر شمالی, والفجر 1",
      "phone": "09396861766",
      "lat": 35.747,
      "lng": 51.389,
      "date": "2024-07-23T17:13:42.982Z",
      "id": 6
    },
    {
      "title": "زارع, شهرک شهید بهشتی",
      "address": "زارع, شهرک شهید بهشتی, شهر چهاردانگه, بخش چهاردانگه, شهرستان اسلامشهر, استان تهران, ایران",
      "description": "زارع, شهرک شهید بهشتی پلاک 13",
      "phone": "09396861766",
      "lat": 35.583,
      "lng": 51.327,
      "date": "2024-07-23T17:11:47.769Z",
      "id": 7
    },
    {
      "title": "زارع, شهرک شهید بهشتی",
      "address": "زارع, شهرک شهید بهشتی, شهر چهاردانگه, بخش چهاردانگه, شهرستان اسلامشهر, استان تهران, ایران",
      "description": "زارع, شهرک شهید بهشتی پلاک 13",
      "phone": "09396861766",
      "lat": 35.583,
      "lng": 51.327,
      "date": "2024-07-23T17:11:47.769Z",
      "id": 8
    },
    {
      "title": "زارع, شهرک شهید بهشتی",
      "address": "زارع, شهرک شهید بهشتی, شهر چهاردانگه, بخش چهاردانگه, شهرستان اسلامشهر, استان تهران, ایران",
      "description": "زارع, شهرک شهید بهشتی پلاک 13",
      "phone": "09396861766",
      "lat": 35.583,
      "lng": 51.327,
      "date": "2024-07-23T17:11:47.769Z",
      "id": 9
    },
    {
      "title": "زارع, شهرک شهید بهشتی",
      "address": "زارع, شهرک شهید بهشتی, شهر چهاردانگه, بخش چهاردانگه, شهرستان اسلامشهر, استان تهران, ایران",
      "description": "زارع, شهرک شهید بهشتی پلاک 13",
      "phone": "09396861766",
      "lat": 35.583,
      "lng": 51.327,
      "date": "2024-07-23T17:11:47.769Z",
      "id": 7
    }
  ]
}